Name,LON,LAT,BasinName,Production,Ending,EndingRate
Agency Rail LLC,-88.847333,40.490883,OilCrop_MissppRN,157941.75,5023.25,0.03180444546576823
Airial Construction,-88.085602,41.851961,OilCrop_MissppRN,157941.75,8376.52,0.053035473177913975
"Alliance Builders And Construction, Inc.",-87.816836,41.840134,OilCrop_MissppRN,157941.75,3048.12,0.019299026653239747
Artix Construction Inc,-87.816836,41.840134,OilCrop_MissppRN,157941.75,2646.81,0.016758147144075475
Assumption Cooperative Grain,-89.277259,39.545839,OilCrop_MissppRN,157941.75,5757.81,0.03645528647471018
Atkinson Grain & Fertilizer,-90.131437,41.353145,OilCrop_MissppRN,157941.75,292.16,0.0018498217569114072
B A B Grain,-89.658883,39.758174,OilCrop_MissppRN,157941.75,14951.49,0.09466455927751814
Bridgeport Grain INC,-87.726786,38.719963,OilCrop_OhioR,662639.0,36821.98,0.05556869176060951
Copper Construction Co,-88.085602,41.851961,OilCrop_MissppRN,157941.75,9294.87,0.05884999580889379
Crea Construction,-87.816836,41.840134,OilCrop_MissppRN,157941.75,14310.54,0.09060642584811629
Danvers Farmers Elevator,-88.847333,40.490883,OilCrop_MissppRN,157941.75,14800.15,0.09370638645335819
Donovan Farmers Cooperative,-87.824344,40.747251,OilCrop_MissppRN,157941.75,13535.9,0.08570182782821581
Eminence Grain & Coal CO,-89.367545,40.124564,OilCrop_MissppRN,157941.75,15031.18,0.09516916184174919
Farmers Grain Company Of Latham,-89.367545,40.124564,OilCrop_MissppRN,157941.75,3412.03,0.0216030964419349
Farmers Grain Service Inc,-88.885951,41.344002,OilCrop_MissppRN,157941.75,7475.82,0.04733278539073147
Geneva Construction Co,-88.428645,41.938852,OilCrop_MissppRN,157941.75,2817.88,0.017841245556572117
Goodwine Cooperative Grain Company,-87.824344,40.747251,OilCrop_MissppRN,157941.75,762.11,0.0048252791971096776
Goodwine Cooperative Grain Company,-87.824344,40.747251,OilCrop_MissppRN,157941.75,7554.78,0.04783270029998109
Grainland Cooperative,-89.211128,40.788226,OilCrop_MissppRN,157941.75,13633.39,0.0863191232444617
Grainland Elevator,-89.211128,40.788226,OilCrop_MissppRN,157941.75,2810.19,0.01779258282470959
Grand Prairie Cooperative Inc,-88.199166,40.140104,OilCrop_OhioR,662639.0,4593.66,0.006932371760103517
Graymont Cooperative Association Grain ELEV,-88.557724,40.891579,OilCrop_MissppRN,157941.75,6802.72,0.04307108175857436
Hartsburg Grain Company,-89.367545,40.124564,OilCrop_MissppRN,157941.75,12065.17,0.0763900226517649
Heartland Construction,-87.816836,41.840134,OilCrop_MissppRN,157941.75,13391.28,0.08478621816749117
Hometeam Group Inc,-87.816836,41.840134,OilCrop_MissppRN,157941.75,697.19,0.004414240686693905
Hudson Grain Co,-88.847333,40.490883,OilCrop_MissppRN,157941.75,12439.14,0.07875779952902696
I D Construction,-88.452342,42.324432,OilCrop_MissppRN,157941.75,1490.94,0.009439801699548955
Jayco Construction,-89.658883,39.758174,OilCrop_MissppRN,157941.75,7945.93,0.05030924827362149
Jersey County Grain Company,-90.667537,39.16925,OilCrop_MissppRN,157941.75,7714.19,0.04884196779621704
K T Richards Construction,-87.978648,41.44505,OilCrop_MissppRN,157941.75,4225.37,0.026752738307791978
Kitchen Seed Co Inc,-90.886303,39.622511,OilCrop_MissppRN,157941.75,2803.48,0.017750117791453114
Koehl Brothers Inc,-88.557724,40.891579,OilCrop_MissppRN,157941.75,7694.5,0.04871730776746902
Legend Exterior & Construction,-88.085602,41.851961,OilCrop_MissppRN,157941.75,7608.72,0.04817422834498558
Lincolnland Agri-Energy,-87.759567,39.002704,OilCrop_OhioR,662639.0,18939.21,0.028581484817197057
Lumber 1 Construction,-87.816836,41.840134,OilCrop_MissppRN,157941.75,1904.86,0.012060537778503166
Midwest Ingredients Inc,-89.759969,40.788053,OilCrop_MissppRN,157941.75,14672.28,0.09289675758680864
Monica Elevator CO,-89.759969,40.788053,OilCrop_MissppRN,157941.75,12102.86,0.0766286550178628
Northern Grain Marketing,-89.528673,41.404133,OilCrop_MissppRN,157941.75,14341.33,0.09080135581643728
P&K Quality Construction,-89.277259,39.545839,OilCrop_MissppRN,157941.75,8102.31,0.05129935086717805
Path Construction Co Inc,-87.816836,41.840134,OilCrop_MissppRN,157941.75,7502.21,0.047499859657028576
Prentice Farmers Elevator,-90.247407,39.973553,OilCrop_MissppRN,157941.75,12673.03,0.08023865985871245
"R.A. James Construction, Inc.",-87.816836,41.840134,OilCrop_MissppRN,157941.75,3758.07,0.023794040432852326
Reyes Group Limited,-87.816836,41.840134,OilCrop_MissppRN,157941.75,2770.61,0.017541952182254385
Roanoke Farmers Association,-89.211128,40.788226,OilCrop_MissppRN,157941.75,14811.95,0.09378110988754203
Robert P Johnson Grain Company,-90.201473,39.715563,OilCrop_MissppRN,157941.75,2453.45,0.015533864808587216
Rock River Lumber & Grain Company,-89.9141,41.756286,OilCrop_MissppRN,157941.75,13226.46,0.08374264617374258
Shore Sales CO Inc,-88.199166,40.140104,OilCrop_OhioR,662639.0,24210.51,0.036536495766137024
Siemer Milling Company,-88.589866,39.059805,OilCrop_OhioR,662639.0,52803.76,0.07968706484342744
Stanford Grain Company,-88.847333,40.490883,OilCrop_MissppRN,157941.75,8965.48,0.056764480448939655
Top Ag Cooperative,-89.435552,38.88684,OilCrop_MissppRN,157941.75,362.6,0.002295774691741903
Top Flight Grain,-88.591112,40.010348,OilCrop_MissppRN,157941.75,12349.37,0.07818936521213679
Tremont Cooperative Grain Company,-89.513424,40.507537,OilCrop_MissppRN,157941.75,1070.25,0.0067762521480031705
Tri Central Cooperative - Main Ofc,-87.824344,40.747251,OilCrop_MissppRN,157941.75,2907.6,0.018409323550397726
Twomey Company,-90.615017,40.848824,OilCrop_MissppRN,157941.75,14790.87,0.09364761497236482
Union Iron Works Inc,-88.961566,39.859997,OilCrop_MissppRN,157941.75,15193.83,0.09619895076258453
US NATIONAL CONSTRUCTION,-87.816836,41.840134,OilCrop_MissppRN,157941.75,8517.62,0.05392888228948557
Wesemann Feeds,-88.77032,41.893537,OilCrop_MissppRN,157941.75,7564.59,0.04789478651525621
Bazooka-Farmstar Inc,-91.717867,41.335614,OilCrop_MissppRN,157941.75,3581.33,0.022674985439707872
Buckingham Co-Operative Company,-92.532561,42.079818,OilCrop_MissppRN,157941.75,1072.55,0.006790808258228842
Clinton Feed & Grain,-90.531972,41.898036,OilCrop_MissppRN,157941.75,8685.16,0.054989642198974086
Dandea Enterprises Inc,-91.599033,42.078966,OilCrop_MissppRN,157941.75,4409.62,0.02791929896446619
Dunkerton Cooperative,-92.308832,42.470098,OilCrop_MissppRN,157941.75,7994.97,0.050619713933433744
East Central Iowa Cooperative,-92.308832,42.470098,OilCrop_MissppRN,157941.75,10356.58,0.06557212510774596
East Central Iowa Cooperative,-91.837854,42.470814,OilCrop_MissppRN,157941.75,9173.63,0.058082343780641144
Farmers Cooperative,-93.240405,42.383881,OilCrop_MissppRN,157941.75,8676.14,0.05493249900927897
Farmers Elevator & Exchange,-91.259615,41.218528,OilCrop_MissppRN,157941.75,668.34,0.004231551756227292
Gold Eagle Cooperative,-94.206724,43.204203,OilCrop_MissppRN,157941.75,5790.84,0.03666441501335109
Gold Eagle Cooperative,-93.735145,42.733092,OilCrop_MissppRN,157941.75,6393.16,0.04047796783479335
Gold Eagle Cooperative,-94.207168,42.776468,OilCrop_MissppRN,157941.75,5703.53,0.0361115857504421
Gold-Eagle Cooperative,-93.735145,42.733092,OilCrop_MissppRN,157941.75,12402.17,0.07852369059436903
Heartland Cooperative,-93.573539,41.685507,OilCrop_MissppRN,157941.75,13357.8,0.08457420229782538
JUHL Feed Store,-94.396842,42.036249,OilCrop_MissppRN,157941.75,12602.74,0.07979362540677679
Liquid Grow Tri Oak,-91.259615,41.218528,OilCrop_MissppRN,157941.75,1594.49,0.010095437901015025
North Central Cooperative,-93.735145,42.733092,OilCrop_MissppRN,157941.75,10502.66,0.06649706406478159
Professional Cooperative,-94.640411,42.385193,OilCrop_MissppRN,157941.75,6136.38,0.038852190102282955
Pruess Elevator Inc,-91.132438,41.772328,OilCrop_MissppRN,157941.75,4788.94,0.03032093847092986
Quality AG Service,-92.869011,41.029803,OilCrop_MissppRN,157941.75,13189.65,0.0835095605425171
Reiff Grain & Feed Inc,-91.948896,41.031777,OilCrop_MissppRN,157941.75,11527.57,0.07298619564688331
Shellsburg Elevator,-92.06575,42.080194,OilCrop_MissppRN,157941.75,3721.6,0.023563129108022808
State Line Cooperative Elevator,-94.206724,43.204203,OilCrop_MissppRN,157941.75,11682.45,0.07396685267093503
Tama Benton Cooperative Company,-92.532561,42.079818,OilCrop_MissppRN,157941.75,10555.88,0.0668340309848893
Tri-States Grain Conditioning,-95.150889,43.377919,OilCrop_MissouriR,156419.82,13438.5,0.08591302558115842
Agassiz Valley Grain,-96.490659,46.892358,OilCrop_NelsonR,85591.2,3888.76,0.04543407771668906
All American Cooperative,-92.401759,44.003767,OilCrop_MissppRN,157941.75,13242.9,0.08384675416034193
All American Cooperative,-92.401759,44.003767,OilCrop_MissppRN,157941.75,5516.09,0.034924868436849076
All-American Cooperative Viola,-92.401759,44.003767,OilCrop_MissppRN,157941.75,4083.59,0.02585505770627785
Bellingham Fertilizer Plant,-96.173524,44.995482,OilCrop_MissppRN,157941.75,917.17,0.005807025288368062
Bird Island Bean Company,-94.947128,44.726822,OilCrop_MissppRN,157941.75,6696.41,0.04239794521056321
C-W Valley Cooperative,-96.468335,46.357069,OilCrop_NelsonR,85591.2,402.0,0.00469676688606635
C-W Valley Cooperative - Comstock Elevator,-96.468335,46.357069,OilCrop_NelsonR,85591.2,6090.45,0.07115739836965788
Canby Farmers Grain Company,-95.868371,44.716256,OilCrop_MissppRN,157941.75,13817.73,0.08748622960469014
Dawson Grain Cooperative,-96.173524,44.995482,OilCrop_MissppRN,157941.75,15480.85,0.09801620199349806
Elbow Lake Cooperative Grain Company,-96.012183,45.934059,OilCrop_NelsonR,85591.2,8404.35,0.09819172822378937
Farm Service Elevator,-95.004726,45.152377,OilCrop_MissppRN,157941.75,12418.58,0.07862760917466803
Farmers Cooperative of Hanska - Main Office - Hanska,-94.727601,44.242145,OilCrop_MissppRN,157941.75,12888.24,0.0816012016233208
Farmers Mill & Elevator Inc,-93.065442,44.671878,OilCrop_MissppRN,157941.75,5454.73,0.03453635929740292
Forsbergs Inc,-96.036709,48.06624,OilCrop_NelsonR,85591.2,952.55,0.011129047240261447
Humboldt-St Vincent Elevator,-96.782876,48.776639,OilCrop_NelsonR,85591.2,552.94,0.006460260223139736
K & S Millwrights Inc,-94.947128,44.726822,OilCrop_MissppRN,157941.75,8468.64,0.05361876835644843
Munson Lakes Nutrition,-93.963063,45.173958,OilCrop_MissppRN,157941.75,9284.86,0.05878662745698458
Prairie Grain Partners LLC,-95.868371,44.716256,OilCrop_MissppRN,157941.75,5125.12,0.03244944039496957
Prairie Lakes Cooperative Elevator,-95.444511,45.586009,OilCrop_MissppRN,157941.75,11895.38,0.07531496863400744
Prinsburg Farmers Cooperative,-95.004726,45.152377,OilCrop_MissppRN,157941.75,12003.55,0.07599985880487403
Profile Industries Inc,-93.476896,45.004583,OilCrop_MissppRN,157941.75,9231.53,0.05844894728168672
Rapat Corporation,-96.490659,46.892358,OilCrop_NelsonR,85591.2,513.13,0.005995137926871885
Red River Grain Company,-96.468335,46.357069,OilCrop_NelsonR,85591.2,8351.46,0.09757382301790862
River Region Cooperative - Main Office,-94.727601,44.242145,OilCrop_MissppRN,157941.75,7360.58,0.046603150526154304
South Central Grain & Energy,-94.947128,44.726822,OilCrop_MissppRN,157941.75,3050.78,0.019315879512585343
UAS Service Corporation,-96.490659,46.892358,OilCrop_NelsonR,85591.2,1924.75,0.02248771277025784
Van AHN & CO Inc,-95.453537,45.933732,OilCrop_MissppRN,157941.75,975.6,0.006176952464966678
Waconia Manufacturing,-93.802607,44.820798,OilCrop_MissppRN,157941.75,14247.56,0.09020766296219808
Western Consolidated Cooperative,-95.681449,45.282694,OilCrop_MissppRN,157941.75,13488.99,0.08540484002590551
Boyd Grain Inc,-87.07205,38.702413,OilCrop_OhioR,662639.0,23194.62,0.0350034027865628
Riley Equipment Inc,-87.41803,38.689077,OilCrop_OhioR,662639.0,21630.85,0.032643486109582266
Agrex Inc,-98.047196,40.176396,OilCrop_MissouriR,156419.82,2397.85,0.015329565023269664
Batterton Waterproofing Inc,-97.597126,40.872749,OilCrop_MissouriR,156419.82,12514.64,0.08000672496244612
Central Valley AG,-96.654014,41.577912,OilCrop_MissouriR,156419.82,1131.95,0.007236591633532519
Cooperative Supply,-97.086476,41.574018,OilCrop_MissouriR,156419.82,10209.45,0.06526957105946482
Cooperative Supply Inc,-96.654014,41.577912,OilCrop_MissouriR,156419.82,4517.93,0.02888337914921202
Cooperative Supply Inc,-96.654014,41.577912,OilCrop_MissouriR,156419.82,10743.3,0.06868245298566081
Country Partners Cooperative,-98.067249,41.706791,OilCrop_MissouriR,156419.82,10371.07,0.06630275688015953
Country Partners Cooperative Company,-98.067249,41.706791,OilCrop_MissouriR,156419.82,12770.92,0.08164515658307679
Crossroads Cooperative Association,-102.994967,41.219774,OilCrop_MissouriR,156419.82,11478.16,0.07338049385396336
Crossroads Cooperative Association,-102.994967,41.219774,OilCrop_MissouriR,156419.82,7403.8,0.04733287942229271
CTEC Inc,-97.597126,40.872749,OilCrop_MissouriR,156419.82,5258.72,0.033619250273980696
Grain States Soya Inc,-96.787394,41.916406,OilCrop_MissouriR,156419.82,359.55,0.002298630559600412
J E Meuret Grain Company,-98.066694,42.176915,OilCrop_MissouriR,156419.82,6757.97,0.04320403463569507
Kaapa Ethanol LLC,-98.948023,40.50671,OilCrop_MissouriR,156419.82,12951.46,0.08279933208251675
Kaapa Grains,-99.074987,40.855162,OilCrop_MissouriR,156419.82,3363.95,0.02150591046724387
Midwest Farmers Cooperative,-96.140884,40.909719,OilCrop_MissouriR,156419.82,3677.11,0.023507926914477027
Pride Grain,-99.92951,42.430005,OilCrop_MissouriR,156419.82,11939.64,0.07633074747419073
Shickley Grain CO Inc,-97.596508,40.524664,OilCrop_MissouriR,156419.82,5072.22,0.03242695689371837
Andersons Investment Service,-83.658294,41.61992,OilCrop_GreatLakes,340150.0,27983.09,0.08226690663456779
Creamer Metal Products Inc,-83.400207,39.894025,OilCrop_OhioR,662639.0,52922.05,0.07986558557357352
Deerfield Farms Service,-81.197405,41.167681,OilCrop_OhioR,662639.0,46849.22,0.07070096308245967
Elgin Service Center,-84.588163,41.560323,OilCrop_GreatLakes,340150.0,21491.17,0.0631814548712201
Farmers Elevator Grain & SUPL,-84.068235,41.333886,OilCrop_GreatLakes,340150.0,16324.49,0.04799204580819601
Gerald Grain Center,-84.068235,41.333886,OilCrop_GreatLakes,340150.0,32904.23,0.09673446958566721
Hicksville Grain Company,-84.49048,41.323924,OilCrop_GreatLakes,340150.0,19996.42,0.05878706550839642
Jewell Grain Company,-84.49048,41.323924,OilCrop_GreatLakes,340150.0,25101.61,0.07379569594034563
Keller Grain & Feed Inc,-84.619409,40.133276,OilCrop_OhioR,662639.0,22671.1,0.03421335666278508
Pandora Grain & Supply,-84.131732,41.022129,OilCrop_GreatLakes,340150.0,21242.51,0.06245043284892016
Scott Equity Exchange,-84.586121,40.855415,OilCrop_GreatLakes,340150.0,30315.47,0.08912383543373913
Bewley ConStruction LLC,-93.188865,36.969576,OilCrop_ArkWhtRedR,33847.88,2491.52,0.0736094425822971
Butterfield & Associates Grain Inc,-93.107206,39.87021,OilCrop_MissouriR,156419.82,11193.31,0.07155939276395548
Cameron Cooperative Elevator Association - Mill & Office,-94.404592,39.60178,OilCrop_MissouriR,156419.82,8139.92,0.05203893154829699
"Capital Electric Line Builders, Inc.",-94.773824,39.3803,OilCrop_MissouriR,156419.82,2766.81,0.01768834636164037
Centric Projects LLC,-94.346142,39.00848,OilCrop_MissouriR,156419.82,7010.98,0.04482158384269913
Feed Products & Service Co,-90.443353,38.640542,OilCrop_MissppRN,157941.75,11869.49,0.07515108918851589
Glasgow MFA Agri Service,-92.69628,39.142508,OilCrop_MissouriR,156419.82,11159.63,0.07134411128933783
Home Matters Alliance LLC,-90.443353,38.640542,OilCrop_MissppRN,157941.75,7540.27,0.0477408540726979
Infinite Energy Construction,-94.346142,39.00848,OilCrop_MissouriR,156419.82,11747.81,0.07510436769358214
K C Supply CO Inc,-94.346142,39.00848,OilCrop_MissouriR,156419.82,951.65,0.006083928336917166
Lawson Agri Service,-93.989931,39.352393,OilCrop_MissouriR,156419.82,4414.93,0.028224881847490467
MFA Agri Svc-Lexington,-93.78551,39.065561,OilCrop_MissouriR,156419.82,3719.57,0.023779416867740977
Mill & Elevator Supply CO Inc,-94.346142,39.00848,OilCrop_MissouriR,156419.82,1210.6,0.007739402976996368
Pilot Grove Cooperative Elevator,-92.810115,38.843552,OilCrop_MissouriR,156419.82,14242.69,0.09105424082291932
Robertson Construction Inc,-90.674882,38.781931,OilCrop_MissppRN,157941.75,12076.81,0.07646367825283021
Seed & Farm Supply,-94.347133,37.502328,OilCrop_ArkWhtRedR,33847.88,1568.68,0.04634509522798595
Twin Peaks Contracting Inc,-90.443353,38.640542,OilCrop_MissppRN,157941.75,3805.39,0.024093657194841366
Unerstall Construction,-91.075037,38.411127,OilCrop_MissppRN,157941.75,13311.26,0.08427956065403812
Whitley Construction Co LLC,-94.346142,39.00848,OilCrop_MissouriR,156419.82,2866.58,0.01832619483999588
Agassiz Seeds,-97.248056,46.932983,OilCrop_NelsonR,85591.2,5737.37,0.06703224424297025
Alton Grain Terminal,-97.16162,47.454188,OilCrop_NelsonR,85591.2,1549.77,0.0181066757816143
Bottineau Farmers Elevator,-100.83333,48.792187,OilCrop_NelsonR,85591.2,4192.24,0.04897979941806346
Cando Farmers Grain & Oil Cooperative - Elevator,-99.24579,48.685548,OilCrop_NelsonR,85591.2,2199.06,0.02569264491763945
Central Valley Bean Cooperative,-97.16162,47.454188,OilCrop_NelsonR,85591.2,4594.51,0.05367974516205355
Dakota Dry Bean Inc,-98.720131,48.268944,OilCrop_NelsonR,85591.2,6624.66,0.07739879822711802
Effertz Key Ranch Inc,-100.63629,48.234577,OilCrop_NelsonR,85591.2,6496.44,0.07590082725551944
Farmers Union Elevator,-101.281173,46.71607,OilCrop_MissouriR,156419.82,9386.63,0.060009197182262684
Finley Farmers Grain Company,-97.724708,47.456175,OilCrop_NelsonR,85591.2,4623.06,0.054013238245919526
Fordville CO Op Marketing Association,-97.721355,48.369474,OilCrop_NelsonR,85591.2,8100.97,0.09464728295630562
Gutter Topper OF North Dakota,-101.321866,47.60697,OilCrop_MissouriR,156419.82,6173.38,0.03946672661860268
Harvey Farmers Elevator,-99.660984,47.587531,OilCrop_MissouriR,156419.82,8793.51,0.05621735268627429
James Valley Grain,-98.504678,46.110186,OilCrop_MissouriR,156419.82,9124.39,0.05833271312487518
Lorrich Industries Inc,-97.551857,48.767508,OilCrop_NelsonR,85591.2,6893.58,0.08054074855059867
Maple River Grain & Agronomy,-97.248056,46.932983,OilCrop_NelsonR,85591.2,8247.15,0.09635508603885722
Martin Construction Inc,-102.65513,46.810691,OilCrop_MissouriR,156419.82,9462.97,0.06049728727960942
Mayport Farmers Cooperative,-97.16162,47.454188,OilCrop_NelsonR,85591.2,643.35,0.007516589434785614
Powers Lake Elevator Company,-102.518309,48.791005,OilCrop_NelsonR,85591.2,1523.5,0.01779973899280769
Reynolds United Cooperative,-97.456983,47.921919,OilCrop_NelsonR,85591.2,2229.14,0.026044072553188646
Reynolds United Cooperative,-97.16162,47.454188,OilCrop_NelsonR,85591.2,6157.0,0.07193502275973371
South Central Grain,-99.477433,46.457363,OilCrop_MissouriR,156419.82,8836.82,0.05649422324053681
Wanzek Construction Inc,-97.248056,46.932983,OilCrop_NelsonR,85591.2,4218.55,0.04928721618757137
Woody's Feed & Grain,-102.65513,46.810691,OilCrop_MissouriR,156419.82,4759.07,0.030424956086372558
A G Partners Cooperative Inc,-95.564215,39.826495,OilCrop_MissouriR,156419.82,10641.91,0.06803424921891764
Agmark,-98.209378,39.393273,OilCrop_MissouriR,156419.82,9204.68,0.058845998210108406
"Beachner Grain Inc - Elevator, St Paul Elevator",-95.306802,37.558502,OilCrop_ArkWhtRedR,33847.88,3368.53,0.09951968376923066
Continental Agra Grain Equipment,-97.427241,38.04322,OilCrop_ArkWhtRedR,33847.88,871.32,0.025742321471927156
Cooperative Elevator & Supply Company,-100.36626,37.238138,OilCrop_ArkWhtRedR,33847.88,3340.97,0.0987053499351132
Cornerstone Agency LLC,-101.05557,39.350924,OilCrop_MissouriR,156419.82,8342.05,0.05333113438808164
Countryside Feed LLC,-97.096895,38.358874,OilCrop_ArkWhtRedR,33847.88,1088.27,0.032151793396403214
Delphos Cooperative Association Elevator,-97.65022,39.132538,OilCrop_MissouriR,156419.82,11481.67,0.07340292545764375
Diversified Inc.,-94.822324,38.883773,OilCrop_MissouriR,156419.82,3605.34,0.023049137025308176
Farmers CO Op Elevator,-97.460993,37.684775,OilCrop_ArkWhtRedR,33847.88,1876.67,0.05544422712300179
Farmers Cooperative,-97.460993,37.684775,OilCrop_ArkWhtRedR,33847.88,300.64,0.008882124719472705
Farmers Cooperative Elevator,-97.427241,38.04322,OilCrop_ArkWhtRedR,33847.88,578.33,0.017086082626430122
Fowler Equity EXCH FERT Department,-100.36626,37.238138,OilCrop_ArkWhtRedR,33847.88,1397.3,0.04128162932666953
Golden Belt Cooperative Association Inc,-99.317275,38.91474,OilCrop_MissouriR,156419.82,12354.87,0.07898532294245678
Heartland Mills Inc,-101.347393,38.48206,OilCrop_ArkWhtRedR,33847.88,474.63,0.014022408772833261
Hi-Plains Cooperative Association Inc,-101.05557,39.350924,OilCrop_MissouriR,156419.82,7988.08,0.05106822697701111
Johnson Cooperative Grain Company,-101.784226,37.563011,OilCrop_ArkWhtRedR,33847.88,2259.05,0.0667413600828326
L Conat Construction,-99.887965,37.691724,OilCrop_ArkWhtRedR,33847.88,612.4,0.018092602840145588
Lighthouse Renovation & Repair,-94.822324,38.883773,OilCrop_MissouriR,156419.82,6944.8,0.04439844171394493
Mc Cune Farmers Cooperative Association,-94.851823,37.507323,OilCrop_ArkWhtRedR,33847.88,3049.3,0.09008836419872789
Mc Donald Commodities,-94.822324,38.883773,OilCrop_MissouriR,156419.82,8292.79,0.053016228720669537
Meade Cooperative South,-100.36626,37.238138,OilCrop_ArkWhtRedR,33847.88,3105.71,0.09175478789655261
MGP Ingredients Inc,-95.313495,39.531759,OilCrop_MissouriR,156419.82,5846.34,0.03737595631513383
Mid Continent Industries,-97.427241,38.04322,OilCrop_ArkWhtRedR,33847.88,42.04,0.0012419974375362242
Minneola Cooperative Inc,-99.820313,37.235519,OilCrop_ArkWhtRedR,33847.88,850.5,0.02512703836460194
OK Company Op Grain Company,-98.684831,37.228866,OilCrop_ArkWhtRedR,33847.88,1260.08,0.03722759380236401
Opp Concrete,-97.460993,37.684775,OilCrop_ArkWhtRedR,33847.88,3295.84,0.09737223662585348
Pawnee County Cooperative Association,-99.236731,38.181331,OilCrop_ArkWhtRedR,33847.88,817.45,0.024150698443670703
Premier Construction Service Inc,-97.460993,37.684775,OilCrop_ArkWhtRedR,33847.88,3329.47,0.09836580730174029
Pro-Ag Marketing,-98.785478,39.785174,OilCrop_MissouriR,156419.82,6237.76,0.039878352057907275
Sherwood Construction Co Inc,-97.460993,37.684775,OilCrop_ArkWhtRedR,33847.88,1525.19,0.04506019593837422
Southern Plains Cooperative,-99.312166,37.887621,OilCrop_ArkWhtRedR,33847.88,2681.19,0.07921294842847053
Stafford County Flour Mills,-98.717434,38.030988,OilCrop_ArkWhtRedR,33847.88,2228.08,0.06582628104909723
Steinlite Corporation,-95.313495,39.531759,OilCrop_MissouriR,156419.82,6355.61,0.040631758680227024
United Prairie Agency LLC,-101.319892,38.000239,OilCrop_ArkWhtRedR,33847.88,2478.11,0.07321328915522839
Wildcat Construction Co Inc,-97.460993,37.684775,OilCrop_ArkWhtRedR,33847.88,2991.45,0.08837911245490317
Woofter Construction & Irrigation,-101.05557,39.350924,OilCrop_MissouriR,156419.82,9305.26,0.05948903753763799
Dakota Plains AG Center,-97.754432,43.334873,OilCrop_MissouriR,156419.82,12275.68,0.07847908779550124
Farmers Cooperative Elevator,-96.946107,45.629576,OilCrop_MissppRN,157941.75,3032.75,0.019201725767245936
Harrold Grain Co LLC,-99.996019,44.389027,OilCrop_MissouriR,156419.82,6447.48,0.04121909966859272
Madison Farmers Elevator Company,-97.129366,44.022065,OilCrop_MissouriR,156419.82,13038.92,0.08335851066771549
Southeast Farmers Elevator,-96.656035,42.832582,OilCrop_MissouriR,156419.82,11944.25,0.07636020644194579
